stop_id,stop_name,stop_desc,stop_lat,stop_lon,zone_id,stop_url,location_type,parent_station,wheelchair_boarding
n3386,島田郵便局,大津線,34.8379005,138.1757396,222097Z_OTS,,1,,0
n825,大津小学校,大津線,34.8552131,138.1812823,222097Z_OTS,,1,,0
n841,島田工業高校,大津線,34.83757,138.202248,222097Z_OTS,,1,,0
n824,落合上,大津線,34.8580239,138.1802226,222097Z_OTS,,1,,0
n817,大草上,大津線,34.870389,138.1814943,222097Z_OTS,,1,,0
n3340_2,島田駅２番のりば,大津線,34.8306057,138.1737912,222097Z_OTS,,0,n3340,0
n831,第二中学校,大津線,34.8446599,138.174991,222097Z_OTS,,1,,0
n840,栃山,大津線,34.836501,138.199278,222097Z_OTS,,1,,0
n829,市民病院北,大津線,34.8467199,138.1832845,222097Z_OTS,,1,,0
n830,中央公園・ばらの丘,大津線,34.8511598,138.174542,222097Z_OTS,,1,,0
n3339,本通三丁目,大津線,34.833551,138.17478,222097Z_OTS,,1,,0
n827,上野田公会堂,大津線,34.8519476,138.182595,222097Z_OTS,,1,,0
n821,尾川,大津線,34.8634168,138.1792494,222097Z_OTS,,1,,0
n832,市役所西,大津線,34.8364648,138.1754269,222097Z_OTS,,1,,0
n822,ぎんもくせい,大津線,34.8611999,138.1797136,222097Z_OTS,,1,,0
n823,永福荘,大津線,34.859912,138.1798456,222097Z_OTS,,1,,0
n3340,島田駅,大津線,34.8306057,138.1737912,222097Z_OTS,,1,,0
n820,大草住宅,大津線,34.8646608,138.1816374,222097Z_OTS,,1,,0
n837,本通七丁目東,大津線,34.833667,138.186484,222097Z_OTS,,1,,0
n828,上野田,大津線,34.8492923,138.1828349,222097Z_OTS,,1,,0
n833,本通三丁目東,大津線,34.832734,138.176081,222097Z_OTS,,1,,0
n836,島田商業高校,大津線,34.8330202,138.1839718,222097Z_OTS,,1,,0
n838,御仮屋,大津線,34.834651,138.190231,222097Z_OTS,,1,,0
n834,本通五丁目,大津線,34.83246,138.178502,222097Z_OTS,,1,,0
n818,大草公会堂,大津線,34.8676734,138.1827441,222097Z_OTS,,1,,0
n816_0,天徳寺,大津線,34.871671,138.180706,222097Z_OTS,,0,n816,0
n839,栃山橋,大津線,34.835919,138.197604,222097Z_OTS,,1,,0
n52428,落合春日神社,大津線,34.8570749,138.1754519,222097Z_OTS,,1,,0
n52426,ばらの丘一丁目,大津線,34.8558644,138.17285,222097Z_OTS,,1,,0
n792,幸町,大津線,34.8346277,138.17503,222097Z_OTS,,1,,0
n826,落合,大津線,34.85377,138.1818949,222097Z_OTS,,1,,0
n52427,ばらの丘二丁目,大津線,34.8579275,138.1728103,222097Z_OTS,,1,,0
n816,天徳寺,大津線,34.871671,138.180706,222097Z_OTS,,1,,0
n819,慶寿寺入口,大津線,34.8661488,138.1832812,222097Z_OTS,,1,,0
n835,本通六丁目,大津線,34.832238,138.180634,222097Z_OTS,,1,,0
n3385,第二中学校入口,大津線,34.8421903,138.1753164,222097Z_OTS,,1,,0
n841_0,島田工業高校,大津線（天徳寺方面行き）02,34.83757,138.202248,222097Z_OTS,,0,n841,0
n840_0,栃山,大津線（天徳寺方面行き）03,34.836501,138.199278,222097Z_OTS,,0,n840,0
n839_0,栃山橋,大津線（天徳寺方面行き）04,34.835919,138.197604,222097Z_OTS,,0,n839,0
n838_0,御仮屋,大津線（天徳寺方面行き）05,34.834651,138.190231,222097Z_OTS,,0,n838,0
n837_0,本通七丁目東,大津線（天徳寺方面行き）06,34.833667,138.186484,222097Z_OTS,,0,n837,0
n836_0,島田商業高校,大津線（天徳寺方面行き）07,34.8330202,138.1839718,222097Z_OTS,,0,n836,0
n835_0,本通六丁目,大津線（天徳寺方面行き）08,34.832238,138.180634,222097Z_OTS,,0,n835,0
n834_0,本通五丁目,大津線（天徳寺方面行き）09,34.83246,138.178502,222097Z_OTS,,0,n834,0
n833_0,本通三丁目東,大津線（天徳寺方面行き）10,34.832734,138.176081,222097Z_OTS,,0,n833,0
n3339_0,本通三丁目,大津線（天徳寺方面行き）12,34.833551,138.17478,222097Z_OTS,,0,n3339,0
n792_0,幸町,大津線（天徳寺方面行き）13,34.8346277,138.17503,222097Z_OTS,,0,n792,0
n832_0,市役所西,大津線（天徳寺方面行き）14,34.8364648,138.1754269,222097Z_OTS,,0,n832,0
n3386_0,島田郵便局,大津線（天徳寺方面行き）15,34.8379005,138.1757396,222097Z_OTS,,0,n3386,0
n3385_0,第二中学校入口,大津線（天徳寺方面行き）16,34.8421903,138.1753164,222097Z_OTS,,0,n3385,0
n831_0,第二中学校,大津線（天徳寺方面行き）17,34.8446599,138.174991,222097Z_OTS,,0,n831,0
n830_0,中央公園・ばらの丘,大津線（天徳寺方面行き）18,34.8511598,138.174542,222097Z_OTS,,0,n830,0
n52426_0,ばらの丘一丁目,大津線（天徳寺方面行き）19,34.8558644,138.17285,222097Z_OTS,,0,n52426,0
n52427_0,ばらの丘二丁目,大津線（天徳寺方面行き）20,34.8579275,138.1728103,222097Z_OTS,,0,n52427,0
n52428_0,落合春日神社,大津線（天徳寺方面行き）21,34.8570749,138.1754519,222097Z_OTS,,0,n52428,0
n829_0,市民病院北,大津線（天徳寺方面行き）22,34.8467199,138.1832845,222097Z_OTS,,0,n829,0
n828_0,上野田,大津線（天徳寺方面行き）23,34.8492923,138.1828349,222097Z_OTS,,0,n828,0
n827_0,上野田公会堂,大津線（天徳寺方面行き）24,34.8519476,138.182595,222097Z_OTS,,0,n827,0
n826_0,落合,大津線（天徳寺方面行き）25,34.85377,138.1818949,222097Z_OTS,,0,n826,0
n825_0,大津小学校,大津線（天徳寺方面行き）26,34.8552131,138.1812823,222097Z_OTS,,0,n825,0
n824_0,落合上,大津線（天徳寺方面行き）27,34.8580239,138.1802226,222097Z_OTS,,0,n824,0
n823_0,永福荘,大津線（天徳寺方面行き）28,34.859912,138.1798456,222097Z_OTS,,0,n823,0
n822_0,ぎんもくせい,大津線（天徳寺方面行き）29,34.8611999,138.1797136,222097Z_OTS,,0,n822,0
n821_0,尾川,大津線（天徳寺方面行き）30,34.8634168,138.1792494,222097Z_OTS,,0,n821,0
n820_0,大草住宅,大津線（天徳寺方面行き）31,34.8646608,138.1816374,222097Z_OTS,,0,n820,0
n819_0,慶寿寺入口,大津線（天徳寺方面行き）32,34.8661488,138.1832812,222097Z_OTS,,0,n819,0
n818_0,大草公会堂,大津線（天徳寺方面行き）33,34.8676734,138.1827441,222097Z_OTS,,0,n818,0
n817_0,大草上,大津線（天徳寺方面行き）34,34.870389,138.1814943,222097Z_OTS,,0,n817,0
n817_1,大草上,大津線（六合駅方面行き）02,34.870323,138.181623,222097Z_OTS,,0,n817,0
n818_1,大草公会堂,大津線（六合駅方面行き）03,34.867658,138.1828517,222097Z_OTS,,0,n818,0
n819_1,慶寿寺入口,大津線（六合駅方面行き）04,34.866142,138.183383,222097Z_OTS,,0,n819,0
n820_1,大草住宅,大津線（六合駅方面行き）05,34.864624,138.181789,222097Z_OTS,,0,n820,0
n821_1,尾川,大津線（六合駅方面行き）06,34.863297,138.179226,222097Z_OTS,,0,n821,0
n822_1,ぎんもくせい,大津線（六合駅方面行き）07,34.860818,138.17982,222097Z_OTS,,0,n822,0
n823_1,永福荘,大津線（六合駅方面行き）08,34.859678,138.179997,222097Z_OTS,,0,n823,0
n824_1,落合上,大津線（六合駅方面行き）09,34.857847,138.180313,222097Z_OTS,,0,n824,0
n825_1,大津小学校,大津線（六合駅方面行き）10,34.855202,138.181378,222097Z_OTS,,0,n825,0
n826_1,落合,大津線（六合駅方面行き）11,34.853573,138.1820814,222097Z_OTS,,0,n826,0
n827_1,上野田公会堂,大津線（六合駅方面行き）12,34.851644,138.182997,222097Z_OTS,,0,n827,0
n828_1,上野田,大津線（六合駅方面行き）13,34.849271,138.182945,222097Z_OTS,,0,n828,0
n829_1,市民病院北,大津線（六合駅方面行き）14,34.846669,138.183214,222097Z_OTS,,0,n829,0
n830_1,中央公園・ばらの丘,大津線（六合駅方面行き）18,34.851236,138.174833,222097Z_OTS,,0,n830,0
n831_1,第二中学校,大津線（六合駅方面行き）19,34.84476,138.175049,222097Z_OTS,,0,n831,0
n3385_1,第二中学校入口,大津線（六合駅方面行き）20,34.842291,138.175395,222097Z_OTS,,0,n3385,0
n3386_1,島田郵便局,大津線（六合駅方面行き）21,34.837997,138.175866,222097Z_OTS,,0,n3386,0
n832_1,市役所西,大津線（六合駅方面行き）22,34.836441,138.1755349,222097Z_OTS,,0,n832,0
n792_1,幸町,大津線（六合駅方面行き）23,34.834769,138.175184,222097Z_OTS,,0,n792,0
n3339_1,本通三丁目,大津線（六合駅方面行き）24,34.832539,138.174702,222097Z_OTS,,0,n3339,0
n833_1,本通三丁目東,大津線（六合駅方面行き）26,34.832816,138.176165,222097Z_OTS,,0,n833,0
n834_1,本通五丁目,大津線（六合駅方面行き）27,34.8326,138.178337,222097Z_OTS,,0,n834,0
n835_1,本通六丁目,大津線（六合駅方面行き）28,34.832374,138.180397,222097Z_OTS,,0,n835,0
n836_1,島田商業高校,大津線（六合駅方面行き）29,34.833222,138.184297,222097Z_OTS,,0,n836,0
n837_1,本通七丁目東,大津線（六合駅方面行き）30,34.833702,138.186322,222097Z_OTS,,0,n837,0
n838_1,御仮屋,大津線（六合駅方面行き）31,34.834763,138.190319,222097Z_OTS,,0,n838,0
n839_1,栃山橋,大津線（六合駅方面行き）32,34.83605,138.197514,222097Z_OTS,,0,n839,0
n840_1,栃山,大津線（六合駅方面行き）33,34.836599,138.199335,222097Z_OTS,,0,n840,0
n841_1,島田工業高校,大津線（六合駅方面行き）34,34.837704,138.202535,222097Z_OTS,,0,n841,0
n811,谷口橋,湯日線,34.820934,138.210392,222097Z_YUI,,1,,0
n814,六合消防署,湯日線,34.83432,138.20523,222097Z_YUI,,1,,0
n801,沼伏東,湯日線,34.804878,138.206024,222097Z_YUI,,1,,0
n3397,色尾,湯日線,34.807099,138.219304,222097Z_YUI,,1,,0
n799,沼伏西,湯日線,34.802061,138.199789,222097Z_YUI,,1,,0
n793,本村,湯日線,34.8063806,138.177282,222097Z_YUI,,1,,0
n796,ふれあいセンター,湯日線,34.804632,138.186063,222097Z_YUI,,1,,0
n795,原の平,湯日線,34.805094,138.183455,222097Z_YUI,,1,,0
n803,月坂一丁目西,湯日線,34.803762,138.210643,222097Z_YUI,,1,,0
n808,旧初,湯日線,34.812898,138.216085,222097Z_YUI,,1,,0
n794,原の平西,湯日線,34.8059,138.180496,222097Z_YUI,,1,,0
n793_0,本村,湯日線,34.8063806,138.177282,222097Z_YUI,,0,n793,0
n802,色尾西,湯日線,34.804214,138.209289,222097Z_YUI,,1,,0
n810,谷口下,湯日線,34.819014,138.212369,222097Z_YUI,,1,,0
n800,沼伏,湯日線,34.803596,138.203957,222097Z_YUI,,1,,0
n806,初倉消防署,湯日線,34.806327,138.217193,222097Z_YUI,,1,,0
n809,旧初下,湯日線,34.814205,138.21538,222097Z_YUI,,1,,0
n805,月坂二丁目,湯日線,34.805486,138.215081,222097Z_YUI,,1,,0
n813,六合中学校,湯日線,34.833816,138.203968,222097Z_YUI,,1,,0
n807,旧初上,湯日線,34.809802,138.218374,222097Z_YUI,,1,,0
n3395,谷口辻,湯日線,34.816413,138.214187,222097Z_YUI,,1,,0
n798,下湯日,湯日線,34.801892,138.196071,222097Z_YUI,,1,,0
n797,下湯日西,湯日線,34.802609,138.191918,222097Z_YUI,,1,,0
n804,月坂一丁目,湯日線,34.804608,138.212804,222097Z_YUI,,1,,0
n3394,道悦島,湯日線,34.830676,138.205182,222097Z_YUI,,1,,0
n815,六合駅,湯日線・大津線,34.8366275,138.2047377,,,1,,0
n815_0,六合駅,湯日線・大津線,34.8366275,138.2047377,222097Z_OTS,,0,n815,0
n815_1,六合駅,湯日線・大津線,34.8366275,138.2047377,222097Z_YUI,,0,n815,0
n814_0,六合消防署,湯日線（本村方面行き）02,34.834303,138.205351,222097Z_YUI,,0,n814,0
n813_0,六合中学校,湯日線（本村方面行き）03,34.833771,138.203917,222097Z_YUI,,0,n813,0
n3394_0,道悦島,湯日線（本村方面行き）04,34.830723,138.205186,222097Z_YUI,,0,n3394,0
n811_0,谷口橋,湯日線（本村方面行き）05,34.820943,138.210504,222097Z_YUI,,0,n811,0
n810_0,谷口下,湯日線（本村方面行き）06,34.819336,138.212226,222097Z_YUI,,0,n810,0
n3395_0,谷口辻,湯日線（本村方面行き）07,34.816383,138.214348,222097Z_YUI,,0,n3395,0
n809_0,旧初下,湯日線（本村方面行き）08,34.8143,138.215442,222097Z_YUI,,0,n809,0
n808_0,旧初,湯日線（本村方面行き）09,34.812929,138.216164,222097Z_YUI,,0,n808,0
n807_0,旧初上,湯日線（本村方面行き）10,34.809885,138.218372,222097Z_YUI,,0,n807,0
n3397_0,色尾,湯日線（本村方面行き）11,34.80686,138.218933,222097Z_YUI,,0,n3397,0
n806_0,初倉消防署,湯日線（本村方面行き）12,34.806162,138.217048,222097Z_YUI,,0,n806,0
n805_0,月坂二丁目,湯日線（本村方面行き）13,34.80538,138.215044,222097Z_YUI,,0,n805,0
n804_0,月坂一丁目,湯日線（本村方面行き）14,34.80454,138.212856,222097Z_YUI,,0,n804,0
n803_0,月坂一丁目西,湯日線（本村方面行き）15,34.803675,138.21065,222097Z_YUI,,0,n803,0
n802_0,色尾西,湯日線（本村方面行き）16,34.804261,138.209165,222097Z_YUI,,0,n802,0
n801_0,沼伏東,湯日線（本村方面行き）17,34.804724,138.205863,222097Z_YUI,,0,n801,0
n800_0,沼伏,湯日線（本村方面行き）18,34.803482,138.203873,222097Z_YUI,,0,n800,0
n799_0,沼伏西,湯日線（本村方面行き）19,34.801869,138.199556,222097Z_YUI,,0,n799,0
n798_0,下湯日,湯日線（本村方面行き）20,34.801723,138.196988,222097Z_YUI,,0,n798,0
n797_0,下湯日西,湯日線（本村方面行き）21,34.802493,138.191818,222097Z_YUI,,0,n797,0
n796_0,ふれあいセンター,湯日線（本村方面行き）22,34.804535,138.186069,222097Z_YUI,,0,n796,0
n795_0,原の平,湯日線（本村方面行き）23,34.80498,138.183311,222097Z_YUI,,0,n795,0
n794_1,原の平西,湯日線（六合方面行き）02,34.8059,138.180496,222097Z_YUI,,0,n794,0
n795_1,原の平,湯日線（六合方面行き）03,34.805094,138.183455,222097Z_YUI,,0,n795,0
n796_1,ふれあいセンター,湯日線（六合方面行き）04,34.804632,138.186063,222097Z_YUI,,0,n796,0
n797_1,下湯日西,湯日線（六合方面行き）05,34.802609,138.191918,222097Z_YUI,,0,n797,0
n798_1,下湯日,湯日線（六合方面行き）06,34.801892,138.196071,222097Z_YUI,,0,n798,0
n799_1,沼伏西,湯日線（六合方面行き）07,34.802061,138.199789,222097Z_YUI,,0,n799,0
n800_1,沼伏,湯日線（六合方面行き）08,34.803596,138.203957,222097Z_YUI,,0,n800,0
n801_1,沼伏東,湯日線（六合方面行き）09,34.804878,138.206024,222097Z_YUI,,0,n801,0
n802_1,色尾西,湯日線（六合方面行き）10,34.804214,138.209289,222097Z_YUI,,0,n802,0
n803_1,月坂一丁目西,湯日線（六合方面行き）11,34.803762,138.210643,222097Z_YUI,,0,n803,0
n804_1,月坂一丁目,湯日線（六合方面行き）12,34.804608,138.212804,222097Z_YUI,,0,n804,0
n805_1,月坂二丁目,湯日線（六合方面行き）13,34.805486,138.215081,222097Z_YUI,,0,n805,0
n806_1,初倉消防署,湯日線（六合方面行き）14,34.806327,138.217193,222097Z_YUI,,0,n806,0
n3397_1,色尾,湯日線（六合方面行き）15,34.807099,138.219304,222097Z_YUI,,0,n3397,0
n807_1,旧初上,湯日線（六合方面行き）16,34.809802,138.218374,222097Z_YUI,,0,n807,0
n808_1,旧初,湯日線（六合方面行き）17,34.812898,138.216085,222097Z_YUI,,0,n808,0
n809_1,旧初下,湯日線（六合方面行き）18,34.814205,138.21538,222097Z_YUI,,0,n809,0
n3395_1,谷口辻,湯日線（六合方面行き）19,34.816413,138.214187,222097Z_YUI,,0,n3395,0
n810_1,谷口下,湯日線（六合方面行き）20,34.819014,138.212369,222097Z_YUI,,0,n810,0
n811_1,谷口橋,湯日線（六合方面行き）21,34.820934,138.210392,222097Z_YUI,,0,n811,0
n3394_1,道悦島,湯日線（六合方面行き）22,34.830676,138.205182,222097Z_YUI,,0,n3394,0
n813_1,六合中学校,湯日線（六合方面行き）23,34.833816,138.203968,222097Z_YUI,,0,n813,0
n814_1,六合消防署,湯日線（六合方面行き）24,34.834367,138.205333,222097Z_YUI,,0,n814,0